{
"type": "FeatureCollection",
"name": "farms_core",
"crs": { "type": "name", "properties": { "name": "urn:ogc:def:crs:OGC:1.3:CRS84" } },
"features": [
{ "type": "Feature", "properties": { "OBJECTID": 1, "name": "Liberty Farms", "town": "Ghent, NY 12075", "location": "Columbia County, NY", "farm_type": "Vegetables", "website": "http://www.libertyfarmsny.com/", "state": "NY", "farming": "", "livestock": "", "honey": "", "moran": true, "hdbscan": true }, "geometry": { "type": "Point", "coordinates": [ -73.641847299999938, 42.293629100000032 ] } },
{ "type": "Feature", "properties": { "OBJECTID": 2, "name": "Cherry Lane Farms", "town": "Bridgeton, NJ 08302", "location": "Cumberland County, NJ", "farm_type": "Vegetables", "website": "n/a", "state": "NJ", "farming": "", "livestock": "", "honey": "", "moran": false, "hdbscan": false }, "geometry": { "type": "Point", "coordinates": [ -75.234076799999968, 39.427337 ] } },
{ "type": "Feature", "properties": { "OBJECTID": 3, "name": "D&V Farms", "town": "Swedesboro, NJ 08085", "location": "Gloucester County, NJ", "farm_type": "Vegetables", "website": "http://www.dandvorganics.com/", "state": "NJ", "farming": "", "livestock": "", "honey": "", "moran": false, "hdbscan": false }, "geometry": { "type": "Point", "coordinates": [ -75.310465399999941, 39.747613600000079 ] } },
{ "type": "Feature", "properties": { "OBJECTID": 4, "name": "Down Home Acres", "town": "Unadilla, NY 12849", "location": "Otsego County, NY", "farm_type": "Vegetables", "website": "http://downhomeacres.weebly.com/", "state": "NY", "farming": "", "livestock": "", "honey": "", "moran": false, "hdbscan": false }, "geometry": { "type": "Point", "coordinates": [ -75.312396899999953, 42.325358600000072 ] } },
{ "type": "Feature", "properties": { "OBJECTID": 5, "name": "El Mimomex", "town": "Goshen, NY 10924", "location": "Orange County, NY", "farm_type": "Vegetables", "website": "n/a", "state": "NY", "farming": "", "livestock": "", "honey": "", "moran": true, "hdbscan": true }, "geometry": { "type": "Point", "coordinates": [ -74.324319099999968, 41.40203820000005 ] } },
{ "type": "Feature", "properties": { "OBJECTID": 6, "name": "Emmerich Greenhouses", "town": "Warwick, NY 10990", "location": "Orange County, NY", "farm_type": "Flowers/Plants", "website": "n/a", "state": "NY", "farming": "", "livestock": "", "honey": "", "moran": true, "hdbscan": true }, "geometry": { "type": "Point", "coordinates": [ -74.359875499999987, 41.256483 ] } },
{ "type": "Feature", "properties": { "OBJECTID": 7, "name": "Angel Family Farm", "town": "Goshen, NY 10924", "location": "Orange County, NY", "farm_type": "Vegetables", "website": "https://www.grownyc.org/nfdp/angelfamilyfarm", "state": "NY", "farming": "", "livestock": "", "honey": "", "moran": true, "hdbscan": true }, "geometry": { "type": "Point", "coordinates": [ -74.324319099999968, 41.40203820000005 ] } },
{ "type": "Feature", "properties": { "OBJECTID": 8, "name": "Phillips Farms", "town": "Milford, NJ 08848", "location": "Hunterdon County, NJ", "farm_type": "Vegetables", "website": "http://www.phillipsfarms.com/", "state": "NJ", "farming": "", "livestock": "", "honey": "", "moran": false, "hdbscan": false }, "geometry": { "type": "Point", "coordinates": [ -75.094616899999949, 40.568712800000071 ] } },
{ "type": "Feature", "properties": { "OBJECTID": 9, "name": "Gajeski Produce", "town": "Riverhead, NY 11901", "location": "Suffolk County, NY", "farm_type": "Vegetables", "website": "n/a", "state": "NY", "farming": "", "livestock": "", "honey": "", "moran": false, "hdbscan": false }, "geometry": { "type": "Point", "coordinates": [ -72.662040199999979, 40.917043500000034 ] } },
{ "type": "Feature", "properties": { "OBJECTID": 10, "name": "Samascott Orchards", "town": "Kinderhook, NY 12106", "location": "Columbia County, NY", "farm_type": "Orchard Fruit", "website": "http://www.samascott.com/", "state": "NY", "farming": "", "livestock": "", "honey": "", "moran": true, "hdbscan": true }, "geometry": { "type": "Point", "coordinates": [ -73.697898299999963, 42.39536170000008 ] } },
{ "type": "Feature", "properties": { "OBJECTID": 11, "name": "Valley Shepherd Creamery", "town": "Long Valley, NJ 07853", "location": "Morris County, NJ", "farm_type": "Dairy", "website": "http://valleyshepherd.com/", "state": "NJ", "farming": "", "livestock": "", "honey": "", "moran": false, "hdbscan": false }, "geometry": { "type": "Point", "coordinates": [ -74.780164499999955, 40.785933100000079 ] } },
{ "type": "Feature", "properties": { "OBJECTID": 12, "name": "Fishkill Farms", "town": "Hopewell Junction, NY 12533", "location": "Dutchess County, NY", "farm_type": "Orchard Fruit", "website": "http://www.fishkillfarms.com/", "state": "NY", "farming": "", "livestock": "", "honey": "", "moran": true, "hdbscan": true }, "geometry": { "type": "Point", "coordinates": [ -73.808744199999978, 41.583982300000059 ] } },
{ "type": "Feature", "properties": { "OBJECTID": 13, "name": "Caradonna Farms", "town": "Milton, NY 12547", "location": "Ulster County, NY", "farm_type": "Orchard Fruit", "website": "n/a", "state": "NY", "farming": "", "livestock": "", "honey": "", "moran": true, "hdbscan": true }, "geometry": { "type": "Point", "coordinates": [ -73.957082599999978, 41.659815700000081 ] } },
{ "type": "Feature", "properties": { "OBJECTID": 14, "name": "Norwich Meadows Farm", "town": "Norwich, NY 13815", "location": "Chenango County, NY", "farm_type": "Vegetables", "website": "http://www.norwichmeadowsfarm.com/", "state": "NY", "farming": "", "livestock": "", "honey": "", "moran": false, "hdbscan": false }, "geometry": { "type": "Point", "coordinates": [ -75.523514899999952, 42.531184 ] } },
{ "type": "Feature", "properties": { "OBJECTID": 15, "name": "Deep Mountain Maple", "town": "West Glover, VT 05875", "location": "Orleans County, VT", "farm_type": "Honey/Maple Syrup", "website": "http://www.deepmountainmaple.com/", "state": "VT", "farming": "", "livestock": "", "honey": "", "moran": false, "hdbscan": false }, "geometry": { "type": "Point", "coordinates": [ -72.226871099999983, 44.729320600000051 ] } },
{ "type": "Feature", "properties": { "OBJECTID": 16, "name": "The River Garden", "town": "Leeds, NY 12451", "location": "Greene County, NY", "farm_type": "Flowers/Plants", "website": "n/a", "state": "NY", "farming": "", "livestock": "", "honey": "", "moran": true, "hdbscan": true }, "geometry": { "type": "Point", "coordinates": [ -73.902351799999963, 42.255365100000063 ] } },
{ "type": "Feature", "properties": { "OBJECTID": 17, "name": "Prospect Hill Orchards", "town": "Milton, NY 12547", "location": "Ulster County, NY", "farm_type": "Orchard Fruit", "website": "http://www.prospecthillorchards.com/", "state": "NY", "farming": "", "livestock": "", "honey": "", "moran": true, "hdbscan": true }, "geometry": { "type": "Point", "coordinates": [ -73.957082599999978, 41.659815700000081 ] } },
{ "type": "Feature", "properties": { "OBJECTID": 18, "name": "Ardith Mae Farm", "town": "Stuyvesant, NY 12173", "location": "Columbia County, NY", "farm_type": "Dairy", "website": "http://www.ardithmae.com/", "state": "NY", "farming": "", "livestock": "", "honey": "", "moran": true, "hdbscan": true }, "geometry": { "type": "Point", "coordinates": [ -73.781512599999985, 42.39036150000004 ] } },
{ "type": "Feature", "properties": { "OBJECTID": 19, "name": "Two Guys From Woodbridge", "town": "Hamden, CT 06518", "location": "New Haven County, CT", "farm_type": "Vegetables", "website": "http://www.twoguysfromwoodbridge.com/", "state": "CT", "farming": "", "livestock": "", "honey": "", "moran": false, "hdbscan": false }, "geometry": { "type": "Point", "coordinates": [ -72.910620199999983, 41.43058810000008 ] } },
{ "type": "Feature", "properties": { "OBJECTID": 20, "name": "Muddy Farm", "town": "Stone Ridge, NY 12484", "location": "Ulster County, NY", "farm_type": "Vegetables", "website": "n/a", "state": "NY", "farming": "", "livestock": "", "honey": "", "moran": true, "hdbscan": true }, "geometry": { "type": "Point", "coordinates": [ -74.152439399999935, 41.84087420000003 ] } },
{ "type": "Feature", "properties": { "OBJECTID": 21, "name": "Evolutionary Organics", "town": "New Paltz, NY 12561", "location": "Ulster County, NY", "farm_type": "Vegetables", "website": "n/a", "state": "NY", "farming": "", "livestock": "", "honey": "", "moran": true, "hdbscan": true }, "geometry": { "type": "Point", "coordinates": [ -74.086809499999958, 41.747593300000062 ] } },
{ "type": "Feature", "properties": { "OBJECTID": 22, "name": "Hudson Valley Organic", "town": "Wawarsing, NY 12489", "location": "Ulster County, NY", "farm_type": "Vegetables", "website": "n/a", "state": "NY", "farming": "", "livestock": "", "honey": "", "moran": true, "hdbscan": true }, "geometry": { "type": "Point", "coordinates": [ -74.357281099999966, 41.749697600000047 ] } },
{ "type": "Feature", "properties": { "OBJECTID": 23, "name": "D'Attolico's Organic Farm", "town": "Pine Island, NY 10969", "location": "Orange County, NY", "farm_type": "Vegetables", "website": "n/a", "state": "NY", "farming": "", "livestock": "", "honey": "", "moran": true, "hdbscan": true }, "geometry": { "type": "Point", "coordinates": [ -74.459324, 41.297872200000029 ] } },
{ "type": "Feature", "properties": { "OBJECTID": 24, "name": "Lucky Dog Farm", "town": "Hamden NY 13782", "location": "Delaware County, NY", "farm_type": "Vegetables", "website": "http://www.luckydogorganic.com/", "state": "NY", "farming": "", "livestock": "", "honey": "", "moran": false, "hdbscan": false }, "geometry": { "type": "Point", "coordinates": [ -74.994608299999982, 42.191196900000079 ] } },
{ "type": "Feature", "properties": { "OBJECTID": 25, "name": "Garden of Eve", "town": "Aquebogue, NY 11931", "location": "Suffolk County, NY", "farm_type": "Vegetables", "website": "http://www.gardenofevefarm.com/", "state": "NY", "farming": "", "livestock": "", "honey": "", "moran": false, "hdbscan": false }, "geometry": { "type": "Point", "coordinates": [ -72.632856899999979, 40.95333 ] } },
{ "type": "Feature", "properties": { "OBJECTID": 26, "name": "The Orchards of Concklin", "town": "Pomona, NY 10970", "location": "Rockland County, NY", "farm_type": "Orchard Fruit", "website": "http://www.orchardsofconcklin.com/", "state": "NY", "farming": "", "livestock": "", "honey": "", "moran": false, "hdbscan": true }, "geometry": { "type": "Point", "coordinates": [ -74.056449899999961, 41.191250700000069 ] } },
{ "type": "Feature", "properties": { "OBJECTID": 27, "name": "Terhune Orchards", "town": "Salt Point, NY 12578", "location": "Dutchess County, NY", "farm_type": "Orchard Fruit", "website": "http://www.terhuneorchardsny.com/Farm/Welcome.html", "state": "NY", "farming": "", "livestock": "", "honey": "", "moran": true, "hdbscan": true }, "geometry": { "type": "Point", "coordinates": [ -73.79357239999996, 41.807127500000036 ] } },
{ "type": "Feature", "properties": { "OBJECTID": 28, "name": "Rexcroft Farms", "town": "Athens, NY 12015", "location": "Greene County, NY", "farm_type": "Vegetables", "website": "http://www.rexcroftfarm.com/", "state": "NY", "farming": "", "livestock": "", "honey": "", "moran": true, "hdbscan": true }, "geometry": { "type": "Point", "coordinates": [ -73.809570699999938, 42.260364800000048 ] } },
{ "type": "Feature", "properties": { "OBJECTID": 29, "name": "Silverpetals Farm", "town": "Pine Plains, NY, 12567", "location": "Dutchess County, NY", "farm_type": "Flowers/Plants", "website": "http://silverpetalsfarm.com/", "state": "NY", "farming": "", "livestock": "", "honey": "", "moran": true, "hdbscan": true }, "geometry": { "type": "Point", "coordinates": [ -73.655960199999981, 41.979814300000044 ] } },
{ "type": "Feature", "properties": { "OBJECTID": 30, "name": "Andrew's Honey", "town": "Norwalk, CT 06850", "location": "Fairfield County, CT", "farm_type": "Honey/Maple Syrup", "website": "http://andrewshoney.com/", "state": "CT", "farming": "", "livestock": "", "honey": "", "moran": false, "hdbscan": false }, "geometry": { "type": "Point", "coordinates": [ -73.459270099999969, 41.117301200000043 ] } },
{ "type": "Feature", "properties": { "OBJECTID": 31, "name": "J & A Farm", "town": "Pine Island, NY 10969", "location": "Orange County, NY", "farm_type": "Vegetables", "website": "http://www.jafarm.org/", "state": "NY", "farming": "", "livestock": "", "honey": "", "moran": true, "hdbscan": true }, "geometry": { "type": "Point", "coordinates": [ -74.459324, 41.297872200000029 ] } },
{ "type": "Feature", "properties": { "OBJECTID": 32, "name": "Oak Grove Plantation", "town": "Pittstown, NJ 08867", "location": "Hunterdon County, NJ", "farm_type": "Vegetables", "website": "n/a", "state": "NJ", "farming": "", "livestock": "", "honey": "", "moran": false, "hdbscan": false }, "geometry": { "type": "Point", "coordinates": [ -74.958495399999947, 40.58286970000006 ] } },
{ "type": "Feature", "properties": { "OBJECTID": 33, "name": "Gorzynski Ornery Farm", "town": "Narrowsburg, NY 12764", "location": "Sullivan County, NY", "farm_type": "Vegetables", "website": "n/a", "state": "NY", "farming": "", "livestock": "", "honey": "", "moran": false, "hdbscan": true }, "geometry": { "type": "Point", "coordinates": [ -75.058194299999968, 41.602546 ] } },
{ "type": "Feature", "properties": { "OBJECTID": 34, "name": "Shushan Valley Hydro", "town": "Shushan, NY 12873", "location": "Washington County, NY", "farm_type": "Vegetables", "website": "http://www.shushanvalleyhydrofarm.com/", "state": "NY", "farming": "", "livestock": "", "honey": "", "moran": false, "hdbscan": false }, "geometry": { "type": "Point", "coordinates": [ -73.342929899999945, 43.090319300000033 ] } },
{ "type": "Feature", "properties": { "OBJECTID": 35, "name": "Lani's Farm", "town": "Bordentown, NJ 08505", "location": "Burlington County, NJ", "farm_type": "Vegetables", "website": "https://www.lanisfarm.com/", "state": "NJ", "farming": "", "livestock": "", "honey": "", "moran": false, "hdbscan": false }, "geometry": { "type": "Point", "coordinates": [ -74.71182639999995, 40.146221300000036 ] } },
{ "type": "Feature", "properties": { "OBJECTID": 36, "name": "Eckerton Hill Farm", "town": "Fleetwood, PA 19522", "location": "Berks County, PA", "farm_type": "Vegetables", "website": "http://eckertonhillfarm.com/", "state": "PA", "farming": "", "livestock": "", "honey": "", "moran": false, "hdbscan": false }, "geometry": { "type": "Point", "coordinates": [ -75.817976399999964, 40.453982800000063 ] } },
{ "type": "Feature", "properties": { "OBJECTID": 37, "name": "Tello's Green Farm", "town": "Coxsackie, NY 12051", "location": "Dutchess County, NY", "farm_type": "Meat/Eggs/Wool", "website": "https://www.grownyc.org/nfdp/tellosgreenfarm", "state": "NY", "farming": "", "livestock": "", "honey": "", "moran": true, "hdbscan": true }, "geometry": { "type": "Point", "coordinates": [ -73.80290279999997, 42.35091790000007 ] } },
{ "type": "Feature", "properties": { "OBJECTID": 38, "name": "Cato Corner Farm", "town": "Colchester, CT 06415", "location": "New London County, CT", "farm_type": "Dairy", "website": "http://www.catocornerfarm.com/", "state": "CT", "farming": "", "livestock": "", "honey": "", "moran": false, "hdbscan": false }, "geometry": { "type": "Point", "coordinates": [ -72.332408199999975, 41.575882500000034 ] } },
{ "type": "Feature", "properties": { "OBJECTID": 39, "name": "Tonjes Farm Dairy", "town": "Callicoon, NY 12723", "location": "Sullivan County, NY", "farm_type": "Dairy", "website": "n/a", "state": "NY", "farming": "", "livestock": "", "honey": "", "moran": true, "hdbscan": true }, "geometry": { "type": "Point", "coordinates": [ -75.056278499999962, 41.767310500000065 ] } },
{ "type": "Feature", "properties": { "OBJECTID": 40, "name": "Haywoods Fresh", "town": "Ghent, NY 12075", "location": "Columbia County, NY", "farm_type": "Meat/Eggs/Wool", "website": "n/a", "state": "NY", "farming": "", "livestock": "", "honey": "", "moran": true, "hdbscan": true }, "geometry": { "type": "Point", "coordinates": [ -73.641847299999938, 42.293629100000032 ] } },
{ "type": "Feature", "properties": { "OBJECTID": 41, "name": "Catskill Merino", "town": "Warwick, NY 10990", "location": "Orange County, NY", "farm_type": "Meat/Eggs/Wool", "website": "http://www.catskill-merino.com/", "state": "NY", "farming": "", "livestock": "", "honey": "", "moran": true, "hdbscan": true }, "geometry": { "type": "Point", "coordinates": [ -74.359875499999987, 41.256483 ] } },
{ "type": "Feature", "properties": { "OBJECTID": 42, "name": "John D Madura Farm", "town": "Pine Island, NY 10969", "location": "Orange County, NY", "farm_type": "Vegetables", "website": "http://johndmadurafarms.com/", "state": "NY", "farming": "", "livestock": "", "honey": "", "moran": true, "hdbscan": true }, "geometry": { "type": "Point", "coordinates": [ -74.459324, 41.297872200000029 ] } },
{ "type": "Feature", "properties": { "OBJECTID": 43, "name": "Bodhitree Farm", "town": "New Lisbon NJ 08064", "location": "Burlington County, NJ", "farm_type": "Vegetables", "website": "https://bodhitreefarm.com/", "state": "NJ", "farming": "", "livestock": "", "honey": "", "moran": false, "hdbscan": false }, "geometry": { "type": "Point", "coordinates": [ -74.627782599999989, 39.95786970000006 ] } },
{ "type": "Feature", "properties": { "OBJECTID": 44, "name": "Hudson Valley Duck Farm", "town": "Ferndale, NY 12734", "location": "Sullivan County, NY", "farm_type": "Meat/Eggs/Wool", "website": "http://hudsonvalleyduckfarm.com/", "state": "NY", "farming": "", "livestock": "", "honey": "", "moran": true, "hdbscan": true }, "geometry": { "type": "Point", "coordinates": [ -74.738629599999967, 41.77330870000003 ] } },
{ "type": "Feature", "properties": { "OBJECTID": 45, "name": "Van Houten Farms", "town": "Orangeburg, NY 10962", "location": "Rockland County, NY", "farm_type": "Vegetables", "website": "http://www.vanhoutenfarmsny.com/#intro", "state": "NY", "farming": "", "livestock": "", "honey": "", "moran": false, "hdbscan": false }, "geometry": { "type": "Point", "coordinates": [ -73.930103699999961, 41.048117800000057 ] } },
{ "type": "Feature", "properties": { "OBJECTID": 46, "name": "Morgiewicz Produce", "town": "Goshen, NY 10924", "location": "Orange County, NY", "farm_type": "Vegetables", "website": "n/a", "state": "NY", "farming": "", "livestock": "", "honey": "", "moran": true, "hdbscan": true }, "geometry": { "type": "Point", "coordinates": [ -74.324319099999968, 41.40203820000005 ] } },
{ "type": "Feature", "properties": { "OBJECTID": 47, "name": "Sycamore Farms", "town": "East Middletown, NY 10941", "location": "Orange County, NY", "farm_type": "Vegetables", "website": "http://www.sycamorefarmsny.com/", "state": "NY", "farming": "", "livestock": "", "honey": "", "moran": true, "hdbscan": true }, "geometry": { "type": "Point", "coordinates": [ -74.399877699999934, 41.444260500000041 ] } },
{ "type": "Feature", "properties": { "OBJECTID": 48, "name": "Quattro's Game Farm", "town": "Pleasant Valley, NY 12569", "location": "Dutchess County, NY", "farm_type": "Meat/Eggs/Wool", "website": "http://www.quattrosfarm.com/contact.html", "state": "NY", "farming": "", "livestock": "", "honey": "", "moran": true, "hdbscan": true }, "geometry": { "type": "Point", "coordinates": [ -73.821243899999956, 41.744538200000079 ] } },
{ "type": "Feature", "properties": { "OBJECTID": 49, "name": "Bobolink Dairy & Bakehouse", "town": "Milford, NJ 08848", "location": "Hunterdon County, NJ", "farm_type": "Dairy", "website": "http://www.cowsoutside.com/", "state": "NJ", "farming": "", "livestock": "", "honey": "", "moran": false, "hdbscan": false }, "geometry": { "type": "Point", "coordinates": [ -75.094616899999949, 40.568712800000071 ] } },
{ "type": "Feature", "properties": { "OBJECTID": 50, "name": "Union Square Grassman", "town": "Brooklyn, NY 11231", "location": "Kings County, NY", "farm_type": "Vegetables", "website": "http://www.unionsquaregrassman.com/", "state": "NY", "farming": "", "livestock": "", "honey": "", "moran": false, "hdbscan": false }, "geometry": { "type": "Point", "coordinates": [ -74.009447099999988, 40.677280200000041 ] } },
{ "type": "Feature", "properties": { "OBJECTID": 51, "name": "Jersey Farm Produce", "town": "Pittstown, NJ 08867", "location": "Hunterdon County, NJ", "farm_type": "Orchard Fruit", "website": "https://www.grownyc.org/nfdp/jerseyfarmproduce", "state": "NJ", "farming": "", "livestock": "", "honey": "", "moran": false, "hdbscan": false }, "geometry": { "type": "Point", "coordinates": [ -74.958495399999947, 40.58286970000006 ] } },
{ "type": "Feature", "properties": { "OBJECTID": 52, "name": "Newgate Farms", "town": "East Granby, CT 06026", "location": "Hartford County, CT", "farm_type": "Vegetables", "website": "n/a", "state": "CT", "farming": "", "livestock": "", "honey": "", "moran": false, "hdbscan": false }, "geometry": { "type": "Point", "coordinates": [ -72.745181699999989, 41.94733610000003 ] } },
{ "type": "Feature", "properties": { "OBJECTID": 53, "name": "Far Out Cactus", "town": "West Chester, PA 19830", "location": "Chester County, PA", "farm_type": "Flowers/Plants", "website": "n/a", "state": "PA", "farming": "", "livestock": "", "honey": "", "moran": false, "hdbscan": false }, "geometry": { "type": "Point", "coordinates": [ -75.605488199999968, 39.960664300000076 ] } },
{ "type": "Feature", "properties": { "OBJECTID": 54, "name": "Silva Orchids", "town": "Neptune, NJ 07753", "location": "Monmouth County, NJ", "farm_type": "Flowers/Plants", "website": "http://www.silvaorchids.com/", "state": "NJ", "farming": "", "livestock": "", "honey": "", "moran": false, "hdbscan": false }, "geometry": { "type": "Point", "coordinates": [ -74.088757599999951, 40.224086900000032 ] } },
{ "type": "Feature", "properties": { "OBJECTID": 55, "name": "Rabbit Run Farm", "town": "Quakertown, PA 18951", "location": "Bucks County, PA", "farm_type": "Vegetables", "website": "n/a", "state": "PA", "farming": "", "livestock": "", "honey": "", "moran": false, "hdbscan": false }, "geometry": { "type": "Point", "coordinates": [ -75.341566699999987, 40.44176820000007 ] } },
{ "type": "Feature", "properties": { "OBJECTID": 56, "name": "Lynnhaven", "town": "Pine Bush, NY 12566", "location": "Ulster County, NY", "farm_type": "Meat/Eggs/Wool", "website": "http://www.lynnhavennubians.com/", "state": "NY", "farming": "", "livestock": "", "honey": "", "moran": true, "hdbscan": true }, "geometry": { "type": "Point", "coordinates": [ -74.299040099999957, 41.608149200000071 ] } },
{ "type": "Feature", "properties": { "OBJECTID": 57, "name": "Central Valley", "town": "Asbury, NJ 08802", "location": "Hunterdon County, NJ", "farm_type": "Meat/Eggs/Wool", "website": "http://www.centralvalleyfarm.com/Welcome.php", "state": "NJ", "farming": "", "livestock": "", "honey": "", "moran": false, "hdbscan": false }, "geometry": { "type": "Point", "coordinates": [ -75.010406599999953, 40.696118800000079 ] } },
{ "type": "Feature", "properties": { "OBJECTID": 58, "name": "Millport Dairy", "town": "Leola, PA 17540", "location": "Lancaster County, PA", "farm_type": "Dairy", "website": "n/a", "state": "PA", "farming": "", "livestock": "", "honey": "", "moran": false, "hdbscan": false }, "geometry": { "type": "Point", "coordinates": [ -76.195017599999971, 40.086805300000037 ] } },
{ "type": "Feature", "properties": { "OBJECTID": 59, "name": "Ronnybrook Farm", "town": "Ancramdale, NY 12503", "location": "Columbia County, NY", "farm_type": "Dairy", "website": "http://www.ronnybrook.com/", "state": "NY", "farming": "", "livestock": "", "honey": "", "moran": true, "hdbscan": true }, "geometry": { "type": "Point", "coordinates": [ -73.591323499999987, 42.018089100000054 ] } },
{ "type": "Feature", "properties": { "OBJECTID": 60, "name": "DiPaola Turkeys", "town": "Hamilton, NJ 08690", "location": "Mercer County, NJ", "farm_type": "Meat/Eggs/Wool", "website": "http://www.dipaolaturkeyfarm.com/", "state": "NJ", "farming": "", "livestock": "", "honey": "", "moran": false, "hdbscan": false }, "geometry": { "type": "Point", "coordinates": [ -74.657609099999945, 40.227683400000046 ] } },
{ "type": "Feature", "properties": { "OBJECTID": 61, "name": "Rose Meadow Farm", "town": "East Patchogue, NY 11772", "location": "Suffolk County, NY", "farm_type": "Flowers/Plants", "website": "n/a", "state": "NY", "farming": "", "livestock": "", "honey": "", "moran": false, "hdbscan": false }, "geometry": { "type": "Point", "coordinates": [ -72.996218899999974, 40.767042700000047 ] } },
{ "type": "Feature", "properties": { "OBJECTID": 62, "name": "James Durr Wholesale Florist", "town": "Chesterfield, NJ 08515", "location": "Burlington County, NJ", "farm_type": "Flowers/Plants", "website": "n/a", "state": "NJ", "farming": "", "livestock": "", "honey": "", "moran": false, "hdbscan": false }, "geometry": { "type": "Point", "coordinates": [ -74.651754, 40.121908100000041 ] } },
{ "type": "Feature", "properties": { "OBJECTID": 63, "name": "Dutchmill Garden", "town": "Newfield, NJ 08344", "location": "Gloucester County, NJ", "farm_type": "Flowers/Plants", "website": "n/a", "state": "NJ", "farming": "", "livestock": "", "honey": "", "moran": false, "hdbscan": false }, "geometry": { "type": "Point", "coordinates": [ -75.024896399999989, 39.54650440000006 ] } },
{ "type": "Feature", "properties": { "OBJECTID": 64, "name": "Fantasy Fruit Farm", "town": "Afton, NY 13730", "location": "Chenango County, NY", "farm_type": "Orchard Fruit", "website": "n/a", "state": "NY", "farming": "", "livestock": "", "honey": "", "moran": false, "hdbscan": false }, "geometry": { "type": "Point", "coordinates": [ -75.526571499999989, 42.228136 ] } },
{ "type": "Feature", "properties": { "OBJECTID": 65, "name": "Locust Grove Farms", "town": "Milton-on-Hudson, NY 12547", "location": "Ulster County, NY", "farm_type": "Orchard Fruit", "website": "http://www.locustgrovefruitfarm.com/", "state": "NY", "farming": "", "livestock": "", "honey": "", "moran": true, "hdbscan": true }, "geometry": { "type": "Point", "coordinates": [ -73.954276399999969, 41.652517900000078 ] } },
{ "type": "Feature", "properties": { "OBJECTID": 66, "name": "Tree-licious Orchards", "town": "Port Murray, NJ 07865", "location": "Warren County, NJ", "farm_type": "Orchard Fruit", "website": "http://treeliciousorchards.com/", "state": "NJ", "farming": "", "livestock": "", "honey": "", "moran": false, "hdbscan": false }, "geometry": { "type": "Point", "coordinates": [ -74.916180599999961, 40.786918400000047 ] } },
{ "type": "Feature", "properties": { "OBJECTID": 67, "name": "Toigo Orchards", "town": "Shippensburg, PA 17257", "location": "Cumberland County, NJ", "farm_type": "Orchard Fruit", "website": "http://www.toigoorchards.com/", "state": "NJ", "farming": "", "livestock": "", "honey": "", "moran": false, "hdbscan": false }, "geometry": { "type": "Point", "coordinates": [ -77.520264699999984, 40.050645300000042 ] } },
{ "type": "Feature", "properties": { "OBJECTID": 68, "name": "Wilklow Orchards", "town": "Highland, NY 12528", "location": "Ulster County, NY", "farm_type": "Orchard Fruit", "website": "http://www.wilkloworchards.com/", "state": "NY", "farming": "", "livestock": "", "honey": "", "moran": true, "hdbscan": true }, "geometry": { "type": "Point", "coordinates": [ -73.96013819999996, 41.720926700000064 ] } },
{ "type": "Feature", "properties": { "OBJECTID": 69, "name": "Williams Fruit Farm", "town": "Highland, NY 12528", "location": "Ulster County, NY", "farm_type": "Orchard Fruit", "website": "n/a", "state": "NY", "farming": "", "livestock": "", "honey": "", "moran": true, "hdbscan": true }, "geometry": { "type": "Point", "coordinates": [ -73.96013819999996, 41.720926700000064 ] } },
{ "type": "Feature", "properties": { "OBJECTID": 70, "name": "Ballard's Honey", "town": "Roxbury, NY 12474", "location": "Delaware County, NY", "farm_type": "Honey/Maple Syrup", "website": "n/a", "state": "NY", "farming": "", "livestock": "", "honey": "", "moran": false, "hdbscan": false }, "geometry": { "type": "Point", "coordinates": [ -74.569761699999958, 42.300186800000063 ] } },
{ "type": "Feature", "properties": { "OBJECTID": 71, "name": "Nature's Way Farm", "town": "Lowman, NY 14861", "location": "Chemung County, NY", "farm_type": "Honey/Maple Syrup", "website": "https://fingerlakesbeekeeping.com/", "state": "NY", "farming": "", "livestock": "", "honey": "", "moran": false, "hdbscan": false }, "geometry": { "type": "Point", "coordinates": [ -76.720507599999962, 42.029796200000078 ] } },
{ "type": "Feature", "properties": { "OBJECTID": 72, "name": "Tremblay Apiaries", "town": "Van Etten, NY 14889", "location": "Chemung County, NY", "farm_type": "Honey/Maple Syrup", "website": "http://www.tremblayapiaries.com/", "state": "NY", "farming": "", "livestock": "", "honey": "", "moran": false, "hdbscan": false }, "geometry": { "type": "Point", "coordinates": [ -76.552444099999946, 42.198685400000045 ] } },
{ "type": "Feature", "properties": { "OBJECTID": 73, "name": "Violet Hill Farm", "town": "West Winfield, NY 13491", "location": "Sullivan County, NY", "farm_type": "Meat/Eggs/Wool", "website": "http://www.violethillfarm.com/", "state": "NY", "farming": "", "livestock": "", "honey": "", "moran": false, "hdbscan": false }, "geometry": { "type": "Point", "coordinates": [ -75.193217499999946, 42.885348800000031 ] } },
{ "type": "Feature", "properties": { "OBJECTID": 74, "name": "Remsburger Honey & Maple", "town": "Pleasant Valley, NY 12569", "location": "Dutchess County, NY", "farm_type": "Honey/Maple Syrup", "website": "http://www.remsburgermaple.com/", "state": "NY", "farming": "", "livestock": "", "honey": "", "moran": true, "hdbscan": true }, "geometry": { "type": "Point", "coordinates": [ -73.821243899999956, 41.744538200000079 ] } },
{ "type": "Feature", "properties": { "OBJECTID": 75, "name": "Wood Homestead", "town": "Stamford, NY 12167", "location": "Schoharie County, NY", "farm_type": "Honey/Maple Syrup", "website": "n/a", "state": "NY", "farming": "", "livestock": "", "honey": "", "moran": false, "hdbscan": false }, "geometry": { "type": "Point", "coordinates": [ -74.614318, 42.407302400000049 ] } },
{ "type": "Feature", "properties": { "OBJECTID": 76, "name": "Scarborough Fields & Flowers", "town": "Montgomery, NY 12549", "location": "Orange County, NY", "farm_type": "Flowers/Plants", "website": "n/a", "state": "NY", "farming": "", "livestock": "", "honey": "", "moran": true, "hdbscan": true }, "geometry": { "type": "Point", "coordinates": [ -74.236816, 41.527593800000034 ] } },
{ "type": "Feature", "properties": { "OBJECTID": 77, "name": "Amantai Farm", "town": "Breinigsville, PA 18031", "location": "Lehigh County, PA", "farm_type": "Vegetables", "website": "n/a", "state": "PA", "farming": "", "livestock": "", "honey": "", "moran": false, "hdbscan": false }, "geometry": { "type": "Point", "coordinates": [ -75.655720599999938, 40.552791100000036 ] } },
{ "type": "Feature", "properties": { "OBJECTID": 78, "name": "Aylano Farm", "town": "Bridgeton, NJ 08302", "location": "Cumberland County, NJ", "farm_type": "Orchard Fruit", "website": "n/a", "state": "NJ", "farming": "", "livestock": "", "honey": "", "moran": false, "hdbscan": false }, "geometry": { "type": "Point", "coordinates": [ -75.234076799999968, 39.427337 ] } },
{ "type": "Feature", "properties": { "OBJECTID": 79, "name": "Back Home Farm", "town": "High Falls, NY 12440", "location": "Ulster County, NY", "farm_type": "Vegetables", "website": "http://www.backhomefarmny.com/", "state": "NY", "farming": "", "livestock": "", "honey": "", "moran": true, "hdbscan": true }, "geometry": { "type": "Point", "coordinates": [ -74.126254899999935, 41.826759600000059 ] } },
{ "type": "Feature", "properties": { "OBJECTID": 80, "name": "Bauma Market", "town": "Bordentown, NJ 08505", "location": "Burlington County, NJ", "farm_type": "Orchard Fruit", "website": "n/a", "state": "NJ", "farming": "", "livestock": "", "honey": "", "moran": false, "hdbscan": false }, "geometry": { "type": "Point", "coordinates": [ -74.71182639999995, 40.146221300000036 ] } },
{ "type": "Feature", "properties": { "OBJECTID": 81, "name": "Bear Creek Farm", "town": "Stanfordville, NY 12581", "location": "Dutchess County, NY", "farm_type": "Flowers/Plants", "website": "n/a", "state": "NY", "farming": "", "livestock": "", "honey": "", "moran": true, "hdbscan": true }, "geometry": { "type": "Point", "coordinates": [ -73.713798399999973, 41.867164700000046 ] } },
{ "type": "Feature", "properties": { "OBJECTID": 82, "name": "Amoon Farm", "town": "Downsville, NY 13755", "location": "Delaware County, NY", "farm_type": "Vegetables", "website": "n/a", "state": "NY", "farming": "", "livestock": "", "honey": "", "moran": false, "hdbscan": false }, "geometry": { "type": "Point", "coordinates": [ -74.995719699999938, 42.080920300000059 ] } },
{ "type": "Feature", "properties": { "OBJECTID": 83, "name": "Big Yellow Sun", "town": "Port Jervis, NY 12771", "location": "Orange County, NY", "farm_type": "Vegetables", "website": "n/a", "state": "NY", "farming": "", "livestock": "", "honey": "", "moran": true, "hdbscan": true }, "geometry": { "type": "Point", "coordinates": [ -74.692663, 41.375093700000036 ] } },
{ "type": "Feature", "properties": { "OBJECTID": 84, "name": "Bradley Farms", "town": "New Paltz, NY 12561", "location": "Ulster County, NY", "farm_type": "Vegetables", "website": "http://raybradleyfarm.com/", "state": "NY", "farming": "", "livestock": "", "honey": "", "moran": true, "hdbscan": true }, "geometry": { "type": "Point", "coordinates": [ -74.086809499999958, 41.747593300000062 ] } },
{ "type": "Feature", "properties": { "OBJECTID": 85, "name": "Campo Rosso", "town": "Gilbertsville, PA 19525", "location": "Berks County, PA", "farm_type": "Vegetables", "website": "n/a", "state": "PA", "farming": "", "livestock": "", "honey": "", "moran": false, "hdbscan": false }, "geometry": { "type": "Point", "coordinates": [ -75.61018439999998, 40.320097200000077 ] } },
{ "type": "Feature", "properties": { "OBJECTID": 86, "name": "Chaseholm Farm", "town": "Pine Plains, NY 12567", "location": "Dutchess County, NY", "farm_type": "Dairy", "website": "http://www.chaseholmfarm.com/", "state": "NY", "farming": "", "livestock": "", "honey": "", "moran": true, "hdbscan": true }, "geometry": { "type": "Point", "coordinates": [ -73.655960199999981, 41.979814300000044 ] } },
{ "type": "Feature", "properties": { "OBJECTID": 87, "name": "Conuco Farm", "town": "New Paltz, NY 12561", "location": "Ulster County, NY", "farm_type": "Vegetables", "website": "https://www.conucofarm.com/", "state": "NY", "farming": "", "livestock": "", "honey": "", "moran": true, "hdbscan": true }, "geometry": { "type": "Point", "coordinates": [ -74.086809499999958, 41.747593300000062 ] } },
{ "type": "Feature", "properties": { "OBJECTID": 88, "name": "F & G Family Farm", "town": "Middletown, NY 10940", "location": "Orange County, NY", "farm_type": "Vegetables", "website": "n/a", "state": "NY", "farming": "", "livestock": "", "honey": "", "moran": true, "hdbscan": true }, "geometry": { "type": "Point", "coordinates": [ -74.422934099999964, 41.445927100000063 ] } },
{ "type": "Feature", "properties": { "OBJECTID": 89, "name": "Feisty Acres Farm", "town": "Southold, NY 11971", "location": "Suffolk County, NY", "farm_type": "Meat/Eggs/Wool", "website": "http://feistyacres.com/", "state": "NY", "farming": "", "livestock": "", "honey": "", "moran": false, "hdbscan": false }, "geometry": { "type": "Point", "coordinates": [ -72.426196199999936, 41.064822200000037 ] } },
{ "type": "Feature", "properties": { "OBJECTID": 90, "name": "Moxie Ridge Farm & Creamery", "town": "Fort Edward, NY 12828", "location": "Washington County, NY", "farm_type": "Meat/Eggs/Wool", "website": "https://www.moxieridgefarm.com/", "state": "NY", "farming": "", "livestock": "", "honey": "", "moran": false, "hdbscan": false }, "geometry": { "type": "Point", "coordinates": [ -73.584559699999943, 43.267017500000065 ] } },
{ "type": "Feature", "properties": { "OBJECTID": 91, "name": "Fresh Radish Farm", "town": "Goshen, NY 10924", "location": "Orange County, NY", "farm_type": "Vegetables", "website": "n/a", "state": "NY", "farming": "", "livestock": "", "honey": "", "moran": true, "hdbscan": true }, "geometry": { "type": "Point", "coordinates": [ -74.324319099999968, 41.40203820000005 ] } },
{ "type": "Feature", "properties": { "OBJECTID": 92, "name": "Furnace Creek Farm", "town": "Oley, PA 19547", "location": "Berks County, PA", "farm_type": "Vegetables", "website": "http://www.furnacecreekfarm.com/", "state": "PA", "farming": "", "livestock": "", "honey": "", "moran": false, "hdbscan": false }, "geometry": { "type": "Point", "coordinates": [ -75.79142, 40.388748900000053 ] } },
{ "type": "Feature", "properties": { "OBJECTID": 93, "name": "Gaia's Breath Farm", "town": "Jordanville, NY 13361", "location": "Herkimer County, NY", "farm_type": "Vegetables", "website": "http://www.gaiasbreathfarm.com/", "state": "NY", "farming": "", "livestock": "", "honey": "", "moran": false, "hdbscan": false }, "geometry": { "type": "Point", "coordinates": [ -74.951543099999981, 42.914793900000063 ] } },
{ "type": "Feature", "properties": { "OBJECTID": 94, "name": "Gail's Farm", "town": "Vineland, NJ 08360", "location": "Cumberland County, NJ", "farm_type": "Meat/Eggs/Wool", "website": "http://www.gailsfarm.com/", "state": "NJ", "farming": "", "livestock": "", "honey": "", "moran": false, "hdbscan": false }, "geometry": { "type": "Point", "coordinates": [ -75.037750199999948, 39.478782700000068 ] } },
{ "type": "Feature", "properties": { "OBJECTID": 95, "name": "Gonzalez Farm", "town": "Middletown, NY 10940", "location": "Orange County, NY", "farm_type": "Vegetables", "website": "n/a", "state": "NY", "farming": "", "livestock": "", "honey": "", "moran": true, "hdbscan": true }, "geometry": { "type": "Point", "coordinates": [ -74.422934099999964, 41.445927100000063 ] } },
{ "type": "Feature", "properties": { "OBJECTID": 96, "name": "Good Find Farm", "town": "Damascus, PA 18415", "location": "Wayne County, PA", "farm_type": "Vegetables", "website": "http://www.goodfindfarm.com/", "state": "PA", "farming": "", "livestock": "", "honey": "", "moran": false, "hdbscan": false }, "geometry": { "type": "Point", "coordinates": [ -75.131187399999988, 41.756048900000053 ] } },
{ "type": "Feature", "properties": { "OBJECTID": 97, "name": "Goodale Farms", "town": "Riverhead, NY 11901", "location": "Suffolk County, NY", "farm_type": "Dairy", "website": "http://www.goodalefarms.com/", "state": "NY", "farming": "", "livestock": "", "honey": "", "moran": false, "hdbscan": false }, "geometry": { "type": "Point", "coordinates": [ -72.662040199999979, 40.917043500000034 ] } },
{ "type": "Feature", "properties": { "OBJECTID": 98, "name": "Grandpa Farm", "town": "Chester, NY 10918", "location": "Orange County, NY", "farm_type": "Vegetables", "website": "https://www.grandpafarm.com/", "state": "NY", "farming": "", "livestock": "", "honey": "", "moran": true, "hdbscan": true }, "geometry": { "type": "Point", "coordinates": [ -74.271261299999935, 41.362593700000048 ] } },
{ "type": "Feature", "properties": { "OBJECTID": 99, "name": "Green Life Family Farm", "town": "Hopewell Junction, NY 12573", "location": "Dutchess County, NY", "farm_type": "Vegetables", "website": "n/a", "state": "NY", "farming": "", "livestock": "", "honey": "", "moran": true, "hdbscan": true }, "geometry": { "type": "Point", "coordinates": [ -73.808744199999978, 41.583982300000059 ] } },
{ "type": "Feature", "properties": { "OBJECTID": 100, "name": "Greener Pastures", "town": "Wells, VT 05774", "location": "Rutland County, VT", "farm_type": "Meat/Eggs/Wool", "website": "https://greenerpasturesfarm.net/", "state": "VT", "farming": "", "livestock": "", "honey": "", "moran": false, "hdbscan": false }, "geometry": { "type": "Point", "coordinates": [ -73.193961199999933, 43.422759100000064 ] } },
{ "type": "Feature", "properties": { "OBJECTID": 101, "name": "Hawthorne Valley Farm", "town": "Ghent, NY 12075", "location": "Columbia County, NY", "farm_type": "Dairy", "website": "http://www.hawthornevalleyfarm.org/", "state": "NY", "farming": "", "livestock": "", "honey": "", "moran": true, "hdbscan": true }, "geometry": { "type": "Point", "coordinates": [ -73.641847299999938, 42.293629100000032 ] } },
{ "type": "Feature", "properties": { "OBJECTID": 102, "name": "Hudson Valley Charcuterie", "town": "East Chatham, NY 12060", "location": "Columbia County, NY", "farm_type": "Meat/Eggs/Wool", "website": "http://www.hudsonvalleycharcuterie.com/", "state": "NY", "farming": "", "livestock": "", "honey": "", "moran": true, "hdbscan": true }, "geometry": { "type": "Point", "coordinates": [ -73.525481, 42.411223 ] } },
{ "type": "Feature", "properties": { "OBJECTID": 103, "name": "Jersey Ridge Organic Farm", "town": "Middleburg, PA 17842", "location": "Snyder County, PA", "farm_type": "Meat/Eggs/Wool", "website": "n/a", "state": "PA", "farming": "", "livestock": "", "honey": "", "moran": false, "hdbscan": false }, "geometry": { "type": "Point", "coordinates": [ -77.047202699999957, 40.785916600000064 ] } },
{ "type": "Feature", "properties": { "OBJECTID": 104, "name": "Josephine's Feast", "town": "Brooklyn, NY 11206", "location": "Kings County, NY", "farm_type": "Flowers/Plants", "website": "http://josephinesfeast.com/", "state": "NY", "farming": "", "livestock": "", "honey": "", "moran": false, "hdbscan": false }, "geometry": { "type": "Point", "coordinates": [ -73.941860299999973, 40.704773800000055 ] } },
{ "type": "Feature", "properties": { "OBJECTID": 105, "name": "Juquilita C T Farm", "town": "Goshen, NY 10924", "location": "Orange County, NY", "farm_type": "Vegetables", "website": "n/a", "state": "NY", "farming": "", "livestock": "", "honey": "", "moran": true, "hdbscan": true }, "geometry": { "type": "Point", "coordinates": [ -74.324319099999968, 41.40203820000005 ] } },
{ "type": "Feature", "properties": { "OBJECTID": 106, "name": "Kernan Farms", "town": "Bridgeton, NJ 08302", "location": "Cumberland County, NJ", "farm_type": "Vegetables", "website": "n/a", "state": "NJ", "farming": "", "livestock": "", "honey": "", "moran": false, "hdbscan": false }, "geometry": { "type": "Point", "coordinates": [ -75.234076799999968, 39.427337 ] } },
{ "type": "Feature", "properties": { "OBJECTID": 107, "name": "La Baraja Farm", "town": "Goshen, NY 10924", "location": "Orange County, NY", "farm_type": "Vegetables", "website": "http://labarajafarm.webs.com/", "state": "NY", "farming": "", "livestock": "", "honey": "", "moran": true, "hdbscan": true }, "geometry": { "type": "Point", "coordinates": [ -74.324319099999968, 41.40203820000005 ] } },
{ "type": "Feature", "properties": { "OBJECTID": 108, "name": "Lavender by the Bay", "town": "East Marion, NY 11939", "location": "Suffolk County, NY", "farm_type": "Flowers/Plants", "website": "https://lavenderbythebay.com/", "state": "NY", "farming": "", "livestock": "", "honey": "", "moran": false, "hdbscan": false }, "geometry": { "type": "Point", "coordinates": [ -72.34008289999997, 41.127598900000066 ] } },
{ "type": "Feature", "properties": { "OBJECTID": 109, "name": "Rise & Root Farm", "town": "Chester, NY 10918", "location": "Orange County, NY", "farm_type": "Vegetables", "website": "http://www.riseandrootfarm.com/", "state": "NY", "farming": "", "livestock": "", "honey": "", "moran": true, "hdbscan": true }, "geometry": { "type": "Point", "coordinates": [ -74.271261299999935, 41.362593700000048 ] } },
{ "type": "Feature", "properties": { "OBJECTID": 110, "name": "Luna Family Farm", "town": "Wrightstown, NJ 08562", "location": "Burlington County, NJ", "farm_type": "Flowers/Plants", "website": "n/a", "state": "NJ", "farming": "", "livestock": "", "honey": "", "moran": false, "hdbscan": false }, "geometry": { "type": "Point", "coordinates": [ -74.617934399999967, 40.036224100000027 ] } },
{ "type": "Feature", "properties": { "OBJECTID": 111, "name": "Maynard Farm & Orchards", "town": "Ulster Park, NY 12487", "location": "Ulster County, NY", "farm_type": "Orchard Fruit", "website": "http://www.maynardfarms.com/", "state": "NY", "farming": "", "livestock": "", "honey": "", "moran": true, "hdbscan": true }, "geometry": { "type": "Point", "coordinates": [ -73.980330799999933, 41.856512 ] } },
{ "type": "Feature", "properties": { "OBJECTID": 112, "name": "Moonshot Farm", "town": "East Windsor, NJ 08520", "location": "Mercer County, NJ", "farm_type": "Flowers/Plants", "website": "https://www.moonshotfarm.com/", "state": "NJ", "farming": "", "livestock": "", "honey": "", "moran": false, "hdbscan": false }, "geometry": { "type": "Point", "coordinates": [ -74.53461029999994, 40.265887300000031 ] } },
{ "type": "Feature", "properties": { "OBJECTID": 113, "name": "Myers Century Farm", "town": "Jeffersonville, NY 12748", "location": "Sullivan County, NY", "farm_type": "Dairy", "website": "n/a", "state": "NY", "farming": "", "livestock": "", "honey": "", "moran": true, "hdbscan": true }, "geometry": { "type": "Point", "coordinates": [ -74.933775499999967, 41.780921700000079 ] } },
{ "type": "Feature", "properties": { "OBJECTID": 114, "name": "Nolasco Farm", "town": "Hackettstown, NJ 07840", "location": "Warren County, NJ", "farm_type": "Vegetables", "website": "https://nolascofarmnj.com/", "state": "NJ", "farming": "", "livestock": "", "honey": "", "moran": false, "hdbscan": false }, "geometry": { "type": "Point", "coordinates": [ -74.829055499999981, 40.85398790000005 ] } },
{ "type": "Feature", "properties": { "OBJECTID": 115, "name": "Ox Hollow Farm", "town": "Roxbury, CT 06783", "location": "Litchfield County, CT", "farm_type": "Meat/Eggs/Wool", "website": "http://www.oxhollowfarm.com/", "state": "CT", "farming": "", "livestock": "", "honey": "", "moran": false, "hdbscan": false }, "geometry": { "type": "Point", "coordinates": [ -73.300123299999939, 41.537924100000055 ] } },
{ "type": "Feature", "properties": { "OBJECTID": 116, "name": "Painted Goat Farm", "town": "Garrattsville, NY 13342", "location": "Otsego County, NY", "farm_type": "Dairy", "website": "http://www.paintedgoat.com/homepage.html", "state": "NY", "farming": "", "livestock": "", "honey": "", "moran": false, "hdbscan": false }, "geometry": { "type": "Point", "coordinates": [ -75.171636799999987, 42.647245100000077 ] } },
{ "type": "Feature", "properties": { "OBJECTID": 117, "name": "Pet-al Plants", "town": "Barrington, NJ 08007", "location": "Camden County, NJ", "farm_type": "Flowers/Plants", "website": "n/a", "state": "NJ", "farming": "", "livestock": "", "honey": "", "moran": false, "hdbscan": false }, "geometry": { "type": "Point", "coordinates": [ -75.052353399999959, 39.866753200000062 ] } },
{ "type": "Feature", "properties": { "OBJECTID": 118, "name": "Quarton Farm", "town": "Neversink, NY 12765", "location": "Sullivan County, NY", "farm_type": "Vegetables", "website": "n/a", "state": "NY", "farming": "", "livestock": "", "honey": "", "moran": true, "hdbscan": true }, "geometry": { "type": "Point", "coordinates": [ -74.62502, 41.844852800000069 ] } },
{ "type": "Feature", "properties": { "OBJECTID": 119, "name": "R & G Produce", "town": "Goshen, NY 10924", "location": "Orange County, NY", "farm_type": "Vegetables", "website": "http://www.rgproduceocg.com/", "state": "NY", "farming": "", "livestock": "", "honey": "", "moran": true, "hdbscan": true }, "geometry": { "type": "Point", "coordinates": [ -74.324319099999968, 41.40203820000005 ] } },
{ "type": "Feature", "properties": { "OBJECTID": 120, "name": "R & R Produce", "town": "New Hampton, NY 10958", "location": "Orange County, NY", "farm_type": "Vegetables", "website": "n/a", "state": "NY", "farming": "", "livestock": "", "honey": "", "moran": true, "hdbscan": true }, "geometry": { "type": "Point", "coordinates": [ -74.4071, 41.41092720000006 ] } },
{ "type": "Feature", "properties": { "OBJECTID": 121, "name": "Ramble Creek Farm", "town": "Columbia, CT 06237", "location": "Tolland County, CT", "farm_type": "Meat/Eggs/Wool", "website": "http://www.ramblecreekfarm.com/", "state": "CT", "farming": "", "livestock": "", "honey": "", "moran": false, "hdbscan": false }, "geometry": { "type": "Point", "coordinates": [ -72.301191699999947, 41.702043200000048 ] } },
{ "type": "Feature", "properties": { "OBJECTID": 122, "name": "Riverine Ranch", "town": "Asbury, NJ 08802", "location": "Warren County, NJ", "farm_type": "Meat/Eggs/Wool", "website": "http://riverineranch.com/", "state": "NJ", "farming": "", "livestock": "", "honey": "", "moran": false, "hdbscan": false }, "geometry": { "type": "Point", "coordinates": [ -75.010406599999953, 40.696118800000079 ] } },
{ "type": "Feature", "properties": { "OBJECTID": 123, "name": "Rooted Family Farm", "town": "Campbell Hall, NY 10916", "location": "Orange County, NY", "farm_type": "Vegetables", "website": "n/a", "state": "NY", "farming": "", "livestock": "", "honey": "", "moran": true, "hdbscan": true }, "geometry": { "type": "Point", "coordinates": [ -74.241409199999964, 41.439981700000033 ] } },
{ "type": "Feature", "properties": { "OBJECTID": 124, "name": "Rosehaven Alpaca", "town": "Callicoon, NY 12723", "location": "Sullivan County, NY", "farm_type": "Meat/Eggs/Wool", "website": "http://www.rosehavenalpacas.com/", "state": "NY", "farming": "", "livestock": "", "honey": "", "moran": true, "hdbscan": true }, "geometry": { "type": "Point", "coordinates": [ -75.056278499999962, 41.767310500000065 ] } },
{ "type": "Feature", "properties": { "OBJECTID": 125, "name": "Row by Row Farm", "town": "Hurley, NY 12443", "location": "Ulster County, NY", "farm_type": "Vegetables", "website": "http://www.rowbyrowfarm.com/", "state": "NY", "farming": "", "livestock": "", "honey": "", "moran": true, "hdbscan": true }, "geometry": { "type": "Point", "coordinates": [ -74.088757599999951, 41.933841400000063 ] } },
{ "type": "Feature", "properties": { "OBJECTID": 126, "name": "Roxbury Mountain Maple", "town": "Hobart, NY 13788", "location": "Delaware County, NY", "farm_type": "Honey/Maple Syrup", "website": "https://www.roxburymountainmaple.com/", "state": "NY", "farming": "", "livestock": "", "honey": "", "moran": false, "hdbscan": false }, "geometry": { "type": "Point", "coordinates": [ -74.670431099999973, 42.371470400000078 ] } },
{ "type": "Feature", "properties": { "OBJECTID": 127, "name": "S & SO Produce", "town": "Goshen, NY 10924", "location": "Orange County, NY", "farm_type": "Vegetables", "website": "n/a", "state": "NY", "farming": "", "livestock": "", "honey": "", "moran": true, "hdbscan": true }, "geometry": { "type": "Point", "coordinates": [ -74.324319099999968, 41.40203820000005 ] } },
{ "type": "Feature", "properties": { "OBJECTID": 128, "name": "Savoie Organic Farm", "town": "Williamstown, NJ 08094", "location": "Gloucester County, NJ", "farm_type": "Vegetables", "website": "http://www.savoieorganicfarm.com/", "state": "NJ", "farming": "", "livestock": "", "honey": "", "moran": false, "hdbscan": false }, "geometry": { "type": "Point", "coordinates": [ -74.995168, 39.686226300000044 ] } },
{ "type": "Feature", "properties": { "OBJECTID": 129, "name": "Breezy Hill Orchards", "town": "Staatsburg, NY 12580", "location": "Dutchess County, NY", "farm_type": "Orchard Fruit", "website": "http://www.breezyhillorchard.com/", "state": "NY", "farming": "", "livestock": "", "honey": "", "moran": true, "hdbscan": true }, "geometry": { "type": "Point", "coordinates": [ -73.930136499999946, 41.849815100000058 ] } },
{ "type": "Feature", "properties": { "OBJECTID": 130, "name": "Knoll Krest Farms", "town": "Staatsburg, NY 12581", "location": "Dutchess County, NY", "farm_type": "Meat/Eggs/Wool", "website": "http://www.breezyhillorchard.com/", "state": "NY", "farming": "", "livestock": "", "honey": "", "moran": true, "hdbscan": true }, "geometry": { "type": "Point", "coordinates": [ -73.930136499999946, 41.849815100000058 ] } },
{ "type": "Feature", "properties": { "OBJECTID": 131, "name": "Shannon Brook Farm", "town": "Watkins Glen, NY 14891", "location": "Schuyler County, NY", "farm_type": "Meat/Eggs/Wool", "website": "http://www.shannonbrookfarm.com/", "state": "NY", "farming": "", "livestock": "", "honey": "", "moran": false, "hdbscan": false }, "geometry": { "type": "Point", "coordinates": [ -76.873292099999958, 42.380628700000045 ] } },
{ "type": "Feature", "properties": { "OBJECTID": 132, "name": "Sikking Farms", "town": "Vineland, NJ 06360", "location": "Atlantic County, NJ", "farm_type": "Flowers/Plants", "website": "http://www.sikkingfarms.com/", "state": "NJ", "farming": "", "livestock": "", "honey": "", "moran": false, "hdbscan": false }, "geometry": { "type": "Point", "coordinates": [ -75.025963699999977, 39.486377300000072 ] } },
{ "type": "Feature", "properties": { "OBJECTID": 133, "name": "Staten Island Family Farm", "town": "Staten Island, NY 10314", "location": "Richmond County, NY", "farm_type": "Vegetables", "website": "n/a", "state": "NY", "farming": "", "livestock": "", "honey": "", "moran": false, "hdbscan": false }, "geometry": { "type": "Point", "coordinates": [ -74.182711899999958, 40.595214600000077 ] } },
{ "type": "Feature", "properties": { "OBJECTID": 134, "name": "Stony Mountain Ranch", "town": "Auburn, PA 17922", "location": "Schuykill County, PA", "farm_type": "Meat/Eggs/Wool", "website": "http://www.stonymountainranch.net/", "state": "PA", "farming": "", "livestock": "", "honey": "", "moran": false, "hdbscan": false }, "geometry": { "type": "Point", "coordinates": [ -76.093272, 40.598424900000055 ] } },
{ "type": "Feature", "properties": { "OBJECTID": 135, "name": "Stoudemire Farms", "town": "Hyde Park, NY 12538", "location": "Dutchess County, NY", "farm_type": "Meat/Eggs/Wool", "website": "http://www.stoudemirefarms.com/", "state": "NY", "farming": "", "livestock": "", "honey": "", "moran": true, "hdbscan": true }, "geometry": { "type": "Point", "coordinates": [ -73.933299299999987, 41.784691100000032 ] } },
{ "type": "Feature", "properties": { "OBJECTID": 136, "name": "Tucker Farm", "town": "Allentown, NJ 08501", "location": "Burlington County, NJ", "farm_type": "Flowers/Plants", "website": "https://tuckerfarms.net/", "state": "NJ", "farming": "", "livestock": "", "honey": "", "moran": false, "hdbscan": false }, "geometry": { "type": "Point", "coordinates": [ -74.583488699999975, 40.177888600000074 ] } },
{ "type": "Feature", "properties": { "OBJECTID": 137, "name": "Tweefontein Herb Farm", "town": "Tillson, NY 12486", "location": "Ulster County, NY", "farm_type": "Vegetables", "website": "http://www.tweefonteinherbfarm.com/", "state": "NY", "farming": "", "livestock": "", "honey": "", "moran": true, "hdbscan": true }, "geometry": { "type": "Point", "coordinates": [ -74.059387199999946, 41.837659300000041 ] } },
{ "type": "Feature", "properties": { "OBJECTID": 138, "name": "Two Brothers Ranch", "town": "Bloomingburg, NY 12721", "location": "Ulster County, NY", "farm_type": "Vegetables", "website": "n/a", "state": "NY", "farming": "", "livestock": "", "honey": "", "moran": true, "hdbscan": true }, "geometry": { "type": "Point", "coordinates": [ -74.439601399999958, 41.554260300000067 ] } },
{ "type": "Feature", "properties": { "OBJECTID": 139, "name": "Walnut Hill Farm", "town": "Pawlet, VT 05761", "location": "Rutland County, VT", "farm_type": "Meat/Eggs/Wool", "website": "https://walnuthillfarmvt.com/", "state": "VT", "farming": "", "livestock": "", "honey": "", "moran": false, "hdbscan": false }, "geometry": { "type": "Point", "coordinates": [ -73.146761899999944, 43.359331600000075 ] } },
{ "type": "Feature", "properties": { "OBJECTID": 140, "name": "Walnut Ridge Farm", "town": "Ovid, NY 14521", "location": "Seneca County, NY", "farm_type": "Meat/Eggs/Wool", "website": "n/a", "state": "NY", "farming": "", "livestock": "", "honey": "", "moran": false, "hdbscan": false }, "geometry": { "type": "Point", "coordinates": [ -76.823011099999974, 42.676459300000033 ] } },
{ "type": "Feature", "properties": { "OBJECTID": 141, "name": "Willow Wisp Organic Farm", "town": "Damascus, PA 18415", "location": "Wayne County, PA", "farm_type": "Vegetables", "website": "http://www.willowwisporganic.com/", "state": "PA", "farming": "", "livestock": "", "honey": "", "moran": false, "hdbscan": false }, "geometry": { "type": "Point", "coordinates": [ -75.131187399999988, 41.756048900000053 ] } },
{ "type": "Feature", "properties": { "OBJECTID": 142, "name": "Windfall Farm", "town": "Montgomery, NY 12549", "location": "Orange County, NY", "farm_type": "Vegetables", "website": "n/a", "state": "NY", "farming": "", "livestock": "", "honey": "", "moran": true, "hdbscan": true }, "geometry": { "type": "Point", "coordinates": [ -74.236816, 41.527593800000034 ] } },
{ "type": "Feature", "properties": { "OBJECTID": 143, "name": "Wood Thrush Farm", "town": "Gardiner, NY 12525", "location": "Orange County, NY", "farm_type": "Vegetables", "website": "https://www.woodthrushfarm.com/", "state": "NY", "farming": "", "livestock": "", "honey": "", "moran": true, "hdbscan": true }, "geometry": { "type": "Point", "coordinates": [ -74.150423099999955, 41.679815700000063 ] } },
{ "type": "Feature", "properties": { "OBJECTID": 144, "name": "4E Green Farm", "town": "Yaphank", "location": "Yaphank, NY", "farm_type": "", "website": "", "state": "NY", "farming": "True", "livestock": "False", "honey": "False", "moran": false, "hdbscan": false }, "geometry": { "type": "Point", "coordinates": [ -72.912138, 40.837128 ] } },
{ "type": "Feature", "properties": { "OBJECTID": 145, "name": "Brooklyn Grange", "town": "Brooklyn", "location": "Brooklyn, NY", "farm_type": "", "website": "", "state": "NY", "farming": "True", "livestock": "False", "honey": "True", "moran": false, "hdbscan": false }, "geometry": { "type": "Point", "coordinates": [ -73.990996, 40.692529 ] } },
{ "type": "Feature", "properties": { "OBJECTID": 146, "name": "Goode and Local By Don Rodrigo", "town": "Mahopac", "location": "Mahopac, NY", "farm_type": "", "website": "", "state": "NY", "farming": "False", "livestock": "True", "honey": "True", "moran": false, "hdbscan": false }, "geometry": { "type": "Point", "coordinates": [ -73.73371, 41.372514 ] } },
{ "type": "Feature", "properties": { "OBJECTID": 147, "name": "CMO Greens", "town": "Center Moriches", "location": "Center Moriches, NY", "farm_type": "", "website": "", "state": "NY", "farming": "True", "livestock": "False", "honey": "False", "moran": false, "hdbscan": false }, "geometry": { "type": "Point", "coordinates": [ -72.789772, 40.800064 ] } },
{ "type": "Feature", "properties": { "OBJECTID": 148, "name": "Glam Gardener NYC", "town": "Staten Island", "location": "Staten Island, NY", "farm_type": "", "website": "", "state": "NY", "farming": "True", "livestock": "False", "honey": "False", "moran": false, "hdbscan": false }, "geometry": { "type": "Point", "coordinates": [ -74.076203, 40.643498 ] } },
{ "type": "Feature", "properties": { "OBJECTID": 149, "name": "Aronia very berry LLC", "town": "Ridgewood", "location": "Ridgewood, NJ", "farm_type": "", "website": "", "state": "NJ", "farming": "True", "livestock": "False", "honey": "False", "moran": false, "hdbscan": false }, "geometry": { "type": "Point", "coordinates": [ -74.119186799999966, 40.979627400000027 ] } },
{ "type": "Feature", "properties": { "OBJECTID": 150, "name": "Midnite Mushrooms, LLC", "town": "Vineland", "location": "Vineland, NJ", "farm_type": "", "website": "", "state": "NJ", "farming": "True", "livestock": "False", "honey": "False", "moran": false, "hdbscan": false }, "geometry": { "type": "Point", "coordinates": [ -75.02578, 39.48618 ] } },
{ "type": "Feature", "properties": { "OBJECTID": 151, "name": "Miss Molly's Honeydrippers", "town": "Wantsgh", "location": "Wantsgh, NY", "farm_type": "", "website": "", "state": "NY", "farming": "False", "livestock": "False", "honey": "True", "moran": false, "hdbscan": false }, "geometry": { "type": "Point", "coordinates": [ -73.510498, 40.670941 ] } },
{ "type": "Feature", "properties": { "OBJECTID": 152, "name": "Guoz Garden", "town": "Stamford", "location": "Stamford, CT", "farm_type": "", "website": "", "state": "CT", "farming": "True", "livestock": "False", "honey": "False", "moran": false, "hdbscan": false }, "geometry": { "type": "Point", "coordinates": [ -73.539475, 41.051924 ] } },
{ "type": "Feature", "properties": { "OBJECTID": 153, "name": "Untamed Flowers NYC", "town": "Brooklyn", "location": "Brooklyn, NY", "farm_type": "", "website": "", "state": "NY", "farming": "True", "livestock": "False", "honey": "False", "moran": false, "hdbscan": false }, "geometry": { "type": "Point", "coordinates": [ -73.990996, 40.692529 ] } },
{ "type": "Feature", "properties": { "OBJECTID": 154, "name": "Mushrooms.NYC", "town": "Ellenville", "location": "Ellenville, NY", "farm_type": "", "website": "", "state": "NY", "farming": "True", "livestock": "False", "honey": "False", "moran": true, "hdbscan": true }, "geometry": { "type": "Point", "coordinates": [ -74.39559, 41.716875 ] } },
{ "type": "Feature", "properties": { "OBJECTID": 155, "name": "Abundance Acres Farm", "town": "Fort Plain", "location": "Fort Plain, NY", "farm_type": "", "website": "", "state": "NY", "farming": "1", "livestock": "1", "honey": "1", "moran": false, "hdbscan": false }, "geometry": { "type": "Point", "coordinates": [ -74.546464499999956, 42.955214800000078 ] } },
{ "type": "Feature", "properties": { "OBJECTID": 156, "name": "Berry Brook Farm", "town": "HAMDEN", "location": "HAMDEN, NY", "farm_type": "", "website": "", "state": "NY", "farming": "1", "livestock": "0", "honey": "0", "moran": false, "hdbscan": false }, "geometry": { "type": "Point", "coordinates": [ -74.981182799999942, 42.195204300000057 ] } },
{ "type": "Feature", "properties": { "OBJECTID": 157, "name": "Catskill Fungi", "town": "Kingston", "location": "Kingston, NY", "farm_type": "", "website": "", "state": "NY", "farming": "1", "livestock": "0", "honey": "0", "moran": false, "hdbscan": false }, "geometry": { "type": "Point", "coordinates": [ -74.456587, 42.115547 ] } },
{ "type": "Feature", "properties": { "OBJECTID": 158, "name": "Central Valley Farm", "town": "Asbury", "location": "Asbury, NJ", "farm_type": "", "website": "", "state": "NJ", "farming": "1", "livestock": "1", "honey": "1", "moran": false, "hdbscan": false }, "geometry": { "type": "Point", "coordinates": [ -75.035742699999957, 40.67459910000008 ] } },
{ "type": "Feature", "properties": { "OBJECTID": 159, "name": "Fino Farms LLC", "town": "Milton", "location": "Milton, NY", "farm_type": "", "website": "", "state": "NY", "farming": "1", "livestock": "0", "honey": "0", "moran": true, "hdbscan": true }, "geometry": { "type": "Point", "coordinates": [ -73.982925399999942, 41.643127400000026 ] } },
{ "type": "Feature", "properties": { "OBJECTID": 160, "name": "Flowering Sun", "town": "Ellenville", "location": "Ellenville, NY", "farm_type": "", "website": "", "state": "NY", "farming": "1", "livestock": "0", "honey": "0", "moran": true, "hdbscan": true }, "geometry": { "type": "Point", "coordinates": [ -74.475378699999965, 41.797383 ] } },
{ "type": "Feature", "properties": { "OBJECTID": 161, "name": "Garden of Eve Organic Farm", "town": "Aquebogue", "location": "Aquebogue, NY", "farm_type": "", "website": "", "state": "NY", "farming": "1", "livestock": "0", "honey": "0", "moran": false, "hdbscan": false }, "geometry": { "type": "Point", "coordinates": [ -72.651717799999972, 40.968581 ] } },
{ "type": "Feature", "properties": { "OBJECTID": 162, "name": "Great Joy Family Farm", "town": "Pine Bush", "location": "Pine Bush, NY", "farm_type": "", "website": "", "state": "NY", "farming": "1", "livestock": "0", "honey": "0", "moran": true, "hdbscan": true }, "geometry": { "type": "Point", "coordinates": [ -74.314423599999941, 41.590608 ] } },
{ "type": "Feature", "properties": { "OBJECTID": 163, "name": "Halal Pastures Farm", "town": "Rock tavern", "location": "Rock tavern, NY", "farm_type": "", "website": "", "state": "NY", "farming": "1", "livestock": "1", "honey": "0", "moran": true, "hdbscan": true }, "geometry": { "type": "Point", "coordinates": [ -74.196907799999963, 41.449395100000061 ] } },
{ "type": "Feature", "properties": { "OBJECTID": 164, "name": "Migliorelli Farm", "town": "Tivoli", "location": "Tivoli, NY", "farm_type": "", "website": "", "state": "NY", "farming": "1", "livestock": "0", "honey": "0", "moran": true, "hdbscan": true }, "geometry": { "type": "Point", "coordinates": [ -73.866372799999965, 42.056464500000061 ] } },
{ "type": "Feature", "properties": { "OBJECTID": 165, "name": "MOMOGLOBALFLOWERS", "town": "Jeffersonville", "location": "Jeffersonville, NY", "farm_type": "", "website": "", "state": "NY", "farming": "1", "livestock": "0", "honey": "0", "moran": true, "hdbscan": true }, "geometry": { "type": "Point", "coordinates": [ -74.924564, 41.743941 ] } },
{ "type": "Feature", "properties": { "OBJECTID": 166, "name": "North Star Farm", "town": "Franklin", "location": "Franklin, NY", "farm_type": "", "website": "", "state": "NY", "farming": "1", "livestock": "0", "honey": "0", "moran": false, "hdbscan": false }, "geometry": { "type": "Point", "coordinates": [ -75.158076699999981, 42.339695300000074 ] } },
{ "type": "Feature", "properties": { "OBJECTID": 167, "name": "Pharm.NYC", "town": "Brooklyn", "location": "Brooklyn, NY", "farm_type": "", "website": "", "state": "NY", "farming": "1", "livestock": "0", "honey": "0", "moran": false, "hdbscan": false }, "geometry": { "type": "Point", "coordinates": [ -73.946502299999963, 40.715984300000059 ] } },
{ "type": "Feature", "properties": { "OBJECTID": 168, "name": "Roaming Acres", "town": "Lafayette", "location": "Lafayette, NJ", "farm_type": "", "website": "", "state": "NJ", "farming": "0", "livestock": "1", "honey": "0", "moran": false, "hdbscan": false }, "geometry": { "type": "Point", "coordinates": [ -74.633353, 41.13341390000005 ] } },
{ "type": "Feature", "properties": { "OBJECTID": 169, "name": "Stone & Thistle Farm", "town": "East Meredith", "location": "East Meredith, NY", "farm_type": "", "website": "", "state": "NY", "farming": "0", "livestock": "1", "honey": "0", "moran": false, "hdbscan": false }, "geometry": { "type": "Point", "coordinates": [ -74.861475899999959, 42.421377300000074 ] } },
{ "type": "Feature", "properties": { "OBJECTID": 170, "name": "Sun Sprout Farm", "town": "Chester", "location": "Chester, NY", "farm_type": "", "website": "", "state": "NY", "farming": "1", "livestock": "0", "honey": "0", "moran": true, "hdbscan": true }, "geometry": { "type": "Point", "coordinates": [ -74.258324699999946, 41.369308800000056 ] } },
{ "type": "Feature", "properties": { "OBJECTID": 171, "name": "Waldingfield Farm", "town": "Washington", "location": "Washington, CT", "farm_type": "", "website": "", "state": "CT", "farming": "1", "livestock": "0", "honey": "0", "moran": false, "hdbscan": false }, "geometry": { "type": "Point", "coordinates": [ -73.282529499999953, 41.636378100000059 ] } },
{ "type": "Feature", "properties": { "OBJECTID": 172, "name": "Yellow Bell Farm", "town": "Red Hook", "location": "Red Hook, NY", "farm_type": "", "website": "", "state": "NY", "farming": "0", "livestock": "1", "honey": "0", "moran": true, "hdbscan": true }, "geometry": { "type": "Point", "coordinates": [ -73.880354699999941, 42.006593900000041 ] } }
]
}
